[
  {
    "iata": "DEL",
    "icao": "VIDP",
    "name": "Indira Gandhi International",
    "city": "New Delhi",
    "country": "India",
    "lat": 28.5665,
    "lon": 77.1031,
    "timezone": "Asia/Kolkata",
    "currency": "INR"
  },
  {
    "iata": "BOM",
    "icao": "VABB",
    "name": "Chhatrapati Shivaji Maharaj International",
    "city": "Mumbai",
    "country": "India",
    "lat": 19.0887,
    "lon": 72.8679,
    "timezone": "Asia/Kolkata",
    "currency": "INR"
  },
  {
    "iata": "BLR",
    "icao": "VOBL",
    "name": "Kempegowda International",
    "city": "Bengaluru",
    "country": "India",
    "lat": 13.1979,
    "lon": 77.7063,
    "timezone": "Asia/Kolkata",
    "currency": "INR"
  },
  {
    "iata": "MAA",
    "icao": "VOMM",
    "name": "Chennai International",
    "city": "Chennai",
    "country": "India",
    "lat": 12.99,
    "lon": 80.1693,
    "timezone": "Asia/Kolkata",
    "currency": "INR"
  },
  {
    "iata": "HYD",
    "icao": "VOHS",
    "name": "Rajiv Gandhi International",
    "city": "Hyderabad",
    "country": "India",
    "lat": 17.2403,
    "lon": 78.4294,
    "timezone": "Asia/Kolkata",
    "currency": "INR"
  },
  {
    "iata": "CCU",
    "icao": "VECC",
    "name": "Netaji Subhas Chandra Bose International",
    "city": "Kolkata",
    "country": "India",
    "lat": 22.6542,
    "lon": 88.4467,
    "timezone": "Asia/Kolkata",
    "currency": "INR"
  },
  {
    "iata": "AMD",
    "icao": "VAAH",
    "name": "Sardar Vallabhbhai Patel International",
    "city": "Ahmedabad",
    "country": "India",
    "lat": 23.0772,
    "lon": 72.6347,
    "timezone": "Asia/Kolkata",
    "currency": "INR"
  },
  {
    "iata": "COK",
    "icao": "VOCI",
    "name": "Cochin International",
    "city": "Kochi",
    "country": "India",
    "lat": 10.152,
    "lon": 76.4019,
    "timezone": "Asia/Kolkata",
    "currency": "INR"
  },
  {
    "iata": "PNQ",
    "icao": "VAPO",
    "name": "Pune Airport",
    "city": "Pune",
    "country": "India",
    "lat": 18.5822,
    "lon": 73.9197,
    "timezone": "Asia/Kolkata",
    "currency": "INR"
  },
  {
    "iata": "GOI",
    "icao": "VAGO",
    "name": "Goa International (Dabolim)",
    "city": "Goa",
    "country": "India",
    "lat": 15.3808,
    "lon": 73.8314,
    "timezone": "Asia/Kolkata",
    "currency": "INR"
  },
  {
    "iata": "JAI",
    "icao": "VIJP",
    "name": "Jaipur International",
    "city": "Jaipur",
    "country": "India",
    "lat": 26.8242,
    "lon": 75.8122,
    "timezone": "Asia/Kolkata",
    "currency": "INR"
  },
  {
    "iata": "LKO",
    "icao": "VILK",
    "name": "Chaudhary Charan Singh International",
    "city": "Lucknow",
    "country": "India",
    "lat": 26.7606,
    "lon": 80.8893,
    "timezone": "Asia/Kolkata",
    "currency": "INR"
  },
  {
    "iata": "SXR",
    "icao": "VISR",
    "name": "Sheikh ul-Alam International",
    "city": "Srinagar",
    "country": "India",
    "lat": 33.9871,
    "lon": 74.7742,
    "timezone": "Asia/Kolkata",
    "currency": "INR"
  },
  {
    "iata": "IXC",
    "icao": "VICG",
    "name": "Chandigarh International",
    "city": "Chandigarh",
    "country": "India",
    "lat": 30.6735,
    "lon": 76.7885,
    "timezone": "Asia/Kolkata",
    "currency": "INR"
  },
  {
    "iata": "PAT",
    "icao": "VEPT",
    "name": "Lok Nayak Jayaprakash International",
    "city": "Patna",
    "country": "India",
    "lat": 25.5913,
    "lon": 85.088,
    "timezone": "Asia/Kolkata",
    "currency": "INR"
  },
  {
    "iata": "BHO",
    "icao": "VABP",
    "name": "Raja Bhoj Airport",
    "city": "Bhopal",
    "country": "India",
    "lat": 23.2875,
    "lon": 77.3374,
    "timezone": "Asia/Kolkata",
    "currency": "INR"
  },
  {
    "iata": "NAG",
    "icao": "VANP",
    "name": "Dr. Babasaheb Ambedkar International",
    "city": "Nagpur",
    "country": "India",
    "lat": 21.0922,
    "lon": 79.0472,
    "timezone": "Asia/Kolkata",
    "currency": "INR"
  },
  {
    "iata": "IXB",
    "icao": "VEBD",
    "name": "Bagdogra Airport",
    "city": "Siliguri",
    "country": "India",
    "lat": 26.6812,
    "lon": 88.3286,
    "timezone": "Asia/Kolkata",
    "currency": "INR"
  },
  {
    "iata": "GAU",
    "icao": "VEGT",
    "name": "Lokpriya Gopinath Bordoloi International",
    "city": "Guwahati",
    "country": "India",
    "lat": 26.1061,
    "lon": 91.5859,
    "timezone": "Asia/Kolkata",
    "currency": "INR"
  },
  {
    "iata": "IXR",
    "icao": "VERC",
    "name": "Birsa Munda Airport",
    "city": "Ranchi",
    "country": "India",
    "lat": 23.3143,
    "lon": 85.3217,
    "timezone": "Asia/Kolkata",
    "currency": "INR"
  },
  {
    "iata": "VNS",
    "icao": "VIBN",
    "name": "Lal Bahadur Shastri International",
    "city": "Varanasi",
    "country": "India",
    "lat": 25.4524,
    "lon": 82.8593,
    "timezone": "Asia/Kolkata",
    "currency": "INR"
  },
  {
    "iata": "RPR",
    "icao": "VARP",
    "name": "Swami Vivekananda Airport",
    "city": "Raipur",
    "country": "India",
    "lat": 21.1804,
    "lon": 81.7388,
    "timezone": "Asia/Kolkata",
    "currency": "INR"
  },
  {
    "iata": "IXZ",
    "icao": "VOBR",
    "name": "Veer Savarkar International",
    "city": "Port Blair",
    "country": "India",
    "lat": 11.6412,
    "lon": 92.7297,
    "timezone": "Asia/Kolkata",
    "currency": "INR"
  },
  {
    "iata": "TRV",
    "icao": "VOTV",
    "name": "Trivandrum International",
    "city": "Thiruvananthapuram",
    "country": "India",
    "lat": 8.4812,
    "lon": 76.9201,
    "timezone": "Asia/Kolkata",
    "currency": "INR"
  },
  {
    "iata": "TRZ",
    "icao": "VOTR",
    "name": "Tiruchirappalli International",
    "city": "Tiruchirappalli",
    "country": "India",
    "lat": 10.7654,
    "lon": 78.7097,
    "timezone": "Asia/Kolkata",
    "currency": "INR"
  },
  {
    "iata": "IXM",
    "icao": "VOMD",
    "name": "Madurai Airport",
    "city": "Madurai",
    "country": "India",
    "lat": 9.8345,
    "lon": 78.0934,
    "timezone": "Asia/Kolkata",
    "currency": "INR"
  },
  {
    "iata": "CJB",
    "icao": "VOCB",
    "name": "Coimbatore International",
    "city": "Coimbatore",
    "country": "India",
    "lat": 11.03,
    "lon": 77.0434,
    "timezone": "Asia/Kolkata",
    "currency": "INR"
  },
  {
    "iata": "ATQ",
    "icao": "VIAR",
    "name": "Sri Guru Ram Dass Jee International",
    "city": "Amritsar",
    "country": "India",
    "lat": 31.7096,
    "lon": 74.7973,
    "timezone": "Asia/Kolkata",
    "currency": "INR"
  },
  {
    "iata": "IXE",
    "icao": "VOME",
    "name": "Mangalore International",
    "city": "Mangaluru",
    "country": "India",
    "lat": 12.9613,
    "lon": 74.8901,
    "timezone": "Asia/Kolkata",
    "currency": "INR"
  },
  {
    "iata": "VTZ",
    "icao": "VOVZ",
    "name": "Visakhapatnam Airport",
    "city": "Visakhapatnam",
    "country": "India",
    "lat": 17.7212,
    "lon": 83.2245,
    "timezone": "Asia/Kolkata",
    "currency": "INR"
  },
  {
    "iata": "BDQ",
    "icao": "VABO",
    "name": "Vadodara Airport",
    "city": "Vadodara",
    "country": "India",
    "lat": 22.3362,
    "lon": 73.2263,
    "timezone": "Asia/Kolkata",
    "currency": "INR"
  },
  {
    "iata": "STV",
    "icao": "VASU",
    "name": "Surat Airport",
    "city": "Surat",
    "country": "India",
    "lat": 21.1141,
    "lon": 72.7418,
    "timezone": "Asia/Kolkata",
    "currency": "INR"
  },
  {
    "iata": "IDR",
    "icao": "VAID",
    "name": "Devi Ahilyabai Holkar Airport",
    "city": "Indore",
    "country": "India",
    "lat": 22.7218,
    "lon": 75.8011,
    "timezone": "Asia/Kolkata",
    "currency": "INR"
  },
  {
    "iata": "IXA",
    "icao": "VEAT",
    "name": "Agartala Airport",
    "city": "Agartala",
    "country": "India",
    "lat": 23.887,
    "lon": 91.2404,
    "timezone": "Asia/Kolkata",
    "currency": "INR"
  },
  {
    "iata": "DIB",
    "icao": "VEMN",
    "name": "Dibrugarh Airport",
    "city": "Dibrugarh",
    "country": "India",
    "lat": 27.4839,
    "lon": 95.0169,
    "timezone": "Asia/Kolkata",
    "currency": "INR"
  },
  {
    "iata": "DMU",
    "icao": "VEMR",
    "name": "Dimapur Airport",
    "city": "Dimapur",
    "country": "India",
    "lat": 25.8839,
    "lon": 93.7711,
    "timezone": "Asia/Kolkata",
    "currency": "INR"
  },
  {
    "iata": "JRH",
    "icao": "VEJT",
    "name": "Jorhat Airport",
    "city": "Jorhat",
    "country": "India",
    "lat": 26.7315,
    "lon": 94.1755,
    "timezone": "Asia/Kolkata",
    "currency": "INR"
  },
  {
    "iata": "IMF",
    "icao": "VEIM",
    "name": "Imphal International",
    "city": "Imphal",
    "country": "India",
    "lat": 24.7599,
    "lon": 93.8967,
    "timezone": "Asia/Kolkata",
    "currency": "INR"
  },
  {
    "iata": "AGX",
    "icao": "VOAT",
    "name": "Agatti Island Airport",
    "city": "Agatti",
    "country": "India",
    "lat": 10.8237,
    "lon": 72.176,
    "timezone": "Asia/Kolkata",
    "currency": "INR"
  },
  {
    "iata": "BKB",
    "icao": "VIBK",
    "name": "Bikaner Airport",
    "city": "Bikaner",
    "country": "India",
    "lat": 28.0706,
    "lon": 73.2072,
    "timezone": "Asia/Kolkata",
    "currency": "INR"
  },
  {
    "iata": "BHU",
    "icao": "VABV",
    "name": "Bhavnagar Airport",
    "city": "Bhavnagar",
    "country": "India",
    "lat": 21.7522,
    "lon": 72.1852,
    "timezone": "Asia/Kolkata",
    "currency": "INR"
  },
  {
    "iata": "JGA",
    "icao": "VAJM",
    "name": "Jamnagar Airport",
    "city": "Jamnagar",
    "country": "India",
    "lat": 22.4655,
    "lon": 70.0126,
    "timezone": "Asia/Kolkata",
    "currency": "INR"
  },
  {
    "iata": "RAJ",
    "icao": "VARK",
    "name": "Rajkot Airport",
    "city": "Rajkot",
    "country": "India",
    "lat": 22.3092,
    "lon": 70.7796,
    "timezone": "Asia/Kolkata",
    "currency": "INR"
  },
  {
    "iata": "PBD",
    "icao": "VAPR",
    "name": "Porbandar Airport",
    "city": "Porbandar",
    "country": "India",
    "lat": 21.6487,
    "lon": 69.6572,
    "timezone": "Asia/Kolkata",
    "currency": "INR"
  },
  {
    "iata": "DHM",
    "icao": "VIGG",
    "name": "Gaggal Airport",
    "city": "Dharamshala",
    "country": "India",
    "lat": 32.1651,
    "lon": 76.2634,
    "timezone": "Asia/Kolkata",
    "currency": "INR"
  },
  {
    "iata": "KUU",
    "icao": "VIBR",
    "name": "Kullu Manali Airport",
    "city": "Kullu",
    "country": "India",
    "lat": 31.8767,
    "lon": 77.1544,
    "timezone": "Asia/Kolkata",
    "currency": "INR"
  },
  {
    "iata": "SLV",
    "icao": "VISM",
    "name": "Shimla Airport",
    "city": "Shimla",
    "country": "India",
    "lat": 31.0818,
    "lon": 77.068,
    "timezone": "Asia/Kolkata",
    "currency": "INR"
  },
  {
    "iata": "LUH",
    "icao": "VILD",
    "name": "Ludhiana Airport",
    "city": "Ludhiana",
    "country": "India",
    "lat": 30.8547,
    "lon": 75.9526,
    "timezone": "Asia/Kolkata",
    "currency": "INR"
  },
  {
    "iata": "BEK",
    "icao": "VIBK",
    "name": "Bareilly Airport",
    "city": "Bareilly",
    "country": "India",
    "lat": 28.4221,
    "lon": 79.4507,
    "timezone": "Asia/Kolkata",
    "currency": "INR"
  },
  {
    "iata": "GWL",
    "icao": "VIGR",
    "name": "Gwalior Airport",
    "city": "Gwalior",
    "country": "India",
    "lat": 26.2933,
    "lon": 78.2278,
    "timezone": "Asia/Kolkata",
    "currency": "INR"
  },
  {
    "iata": "KNU",
    "icao": "VIKA",
    "name": "Kanpur Airport",
    "city": "Kanpur",
    "country": "India",
    "lat": 26.4044,
    "lon": 80.3649,
    "timezone": "Asia/Kolkata",
    "currency": "INR"
  },
  {
    "iata": "AGR",
    "icao": "VIAG",
    "name": "Agra Airport",
    "city": "Agra",
    "country": "India",
    "lat": 27.1558,
    "lon": 77.9609,
    "timezone": "Asia/Kolkata",
    "currency": "INR"
  },
  {
    "iata": "JLR",
    "icao": "VEJA",
    "name": "Jabalpur Airport",
    "city": "Jabalpur",
    "country": "India",
    "lat": 23.1778,
    "lon": 80.052,
    "timezone": "Asia/Kolkata",
    "currency": "INR"
  },
  {
    "iata": "HBX",
    "icao": "VAHN",
    "name": "Hubli Airport",
    "city": "Hubli",
    "country": "India",
    "lat": 15.3617,
    "lon": 75.0849,
    "timezone": "Asia/Kolkata",
    "currency": "INR"
  },
  {
    "iata": "BEP",
    "icao": "VOBP",
    "name": "Bellary Airport",
    "city": "Bellary",
    "country": "India",
    "lat": 15.1628,
    "lon": 76.8828,
    "timezone": "Asia/Kolkata",
    "currency": "INR"
  },
  {
    "iata": "IXG",
    "icao": "VOBG",
    "name": "Belgaum Airport",
    "city": "Belagavi",
    "country": "India",
    "lat": 15.8593,
    "lon": 74.6183,
    "timezone": "Asia/Kolkata",
    "currency": "INR"
  },
  {
    "iata": "MYQ",
    "icao": "VOMY",
    "name": "Mysore Airport",
    "city": "Mysuru",
    "country": "India",
    "lat": 12.2307,
    "lon": 76.6496,
    "timezone": "Asia/Kolkata",
    "currency": "INR"
  },
  {
    "iata": "CCJ",
    "icao": "VOCL",
    "name": "Calicut International",
    "city": "Kozhikode",
    "country": "India",
    "lat": 11.1368,
    "lon": 75.9553,
    "timezone": "Asia/Kolkata",
    "currency": "INR"
  },
  {
    "iata": "CNN",
    "icao": "VOTJ",
    "name": "Kannur International",
    "city": "Kannur",
    "country": "India",
    "lat": 11.9186,
    "lon": 75.547,
    "timezone": "Asia/Kolkata",
    "currency": "INR"
  },
  {
    "iata": "BLH",
    "icao": "VOTK",
    "name": "Tuticorin Airport",
    "city": "Thoothukudi",
    "country": "India",
    "lat": 8.7242,
    "lon": 78.0258,
    "timezone": "Asia/Kolkata",
    "currency": "INR"
  },
  {
    "iata": "TJV",
    "icao": "VOTJ",
    "name": "Thanjavur Airport",
    "city": "Thanjavur",
    "country": "India",
    "lat": 10.7224,
    "lon": 79.1014,
    "timezone": "Asia/Kolkata",
    "currency": "INR"
  },
  {
    "iata": "PTB",
    "icao": "VEPT",
    "name": "Pathankot Airport",
    "city": "Pathankot",
    "country": "India",
    "lat": 32.2336,
    "lon": 75.6352,
    "timezone": "Asia/Kolkata",
    "currency": "INR"
  },
  {
    "iata": "KTU",
    "icao": "VIKO",
    "name": "Kota Airport",
    "city": "Kota",
    "country": "India",
    "lat": 25.1602,
    "lon": 75.8456,
    "timezone": "Asia/Kolkata",
    "currency": "INR"
  },
  {
    "iata": "JSA",
    "icao": "VIJS",
    "name": "Jaisalmer Airport",
    "city": "Jaisalmer",
    "country": "India",
    "lat": 26.8887,
    "lon": 70.865,
    "timezone": "Asia/Kolkata",
    "currency": "INR"
  },
  {
    "iata": "JOD",
    "icao": "VIJR",
    "name": "Jodhpur Airport",
    "city": "Jodhpur",
    "country": "India",
    "lat": 26.2511,
    "lon": 73.0489,
    "timezone": "Asia/Kolkata",
    "currency": "INR"
  },
  {
    "iata": "UDR",
    "icao": "VAUD",
    "name": "Maharana Pratap Airport",
    "city": "Udaipur",
    "country": "India",
    "lat": 24.6177,
    "lon": 73.8961,
    "timezone": "Asia/Kolkata",
    "currency": "INR"
  },
  {
    "iata": "AJL",
    "icao": "VELP",
    "name": "Lengpui Airport",
    "city": "Aizawl",
    "country": "India",
    "lat": 23.8406,
    "lon": 92.6196,
    "timezone": "Asia/Kolkata",
    "currency": "INR"
  },
  {
    "iata": "IXS",
    "icao": "VEKU",
    "name": "Silchar Airport",
    "city": "Silchar",
    "country": "India",
    "lat": 24.9129,
    "lon": 92.9787,
    "timezone": "Asia/Kolkata",
    "currency": "INR"
  },
  {
    "iata": "IXH",
    "icao": "VEKO",
    "name": "Kailashahar Airport",
    "city": "Kailashahar",
    "country": "India",
    "lat": 24.3082,
    "lon": 92.0072,
    "timezone": "Asia/Kolkata",
    "currency": "INR"
  },
  {
    "iata": "MZU",
    "icao": "VEZU",
    "name": "Muzaffarpur Airport",
    "city": "Muzaffarpur",
    "country": "India",
    "lat": 26.1191,
    "lon": 85.3137,
    "timezone": "Asia/Kolkata",
    "currency": "INR"
  },
  {
    "iata": "GAY",
    "icao": "VEGY",
    "name": "Gaya Airport",
    "city": "Gaya",
    "country": "India",
    "lat": 24.7443,
    "lon": 84.9512,
    "timezone": "Asia/Kolkata",
    "currency": "INR"
  },
  {
    "iata": "DBR",
    "icao": "VADN",
    "name": "Darbhanga Airport",
    "city": "Darbhanga",
    "country": "India",
    "lat": 26.1913,
    "lon": 85.9147,
    "timezone": "Asia/Kolkata",
    "currency": "INR"
  },
  {
    "iata": "JGB",
    "icao": "VEJB",
    "name": "Jabalpur (alt)",
    "city": "Jabalpur",
    "country": "India",
    "lat": 23.1778,
    "lon": 80.052,
    "timezone": "Asia/Kolkata",
    "currency": "INR"
  },
  {
    "iata": "TEZ",
    "icao": "VETZ",
    "name": "Tezpur Airport",
    "city": "Tezpur",
    "country": "India",
    "lat": 26.7092,
    "lon": 92.7847,
    "timezone": "Asia/Kolkata",
    "currency": "INR"
  },
  {
    "iata": "ZER",
    "icao": "VEZO",
    "name": "Zero Airport",
    "city": "Ziro",
    "country": "India",
    "lat": 27.5883,
    "lon": 93.8281,
    "timezone": "Asia/Kolkata",
    "currency": "INR"
  },
  {
    "iata": "HGI",
    "icao": "VEHG",
    "name": "Hirakud Airport",
    "city": "Sambalpur",
    "country": "India",
    "lat": 21.9188,
    "lon": 84.0095,
    "timezone": "Asia/Kolkata",
    "currency": "INR"
  },
  {
    "iata": "BBI",
    "icao": "VEBS",
    "name": "Biju Patnaik International",
    "city": "Bhubaneswar",
    "country": "India",
    "lat": 20.2444,
    "lon": 85.8178,
    "timezone": "Asia/Kolkata",
    "currency": "INR"
  },
  {
    "iata": "RJA",
    "icao": "VORY",
    "name": "Rajahmundry Airport",
    "city": "Rajahmundry",
    "country": "India",
    "lat": 17.1104,
    "lon": 81.8182,
    "timezone": "Asia/Kolkata",
    "currency": "INR"
  },
  {
    "iata": "VGA",
    "icao": "VOVG",
    "name": "Vijayawada Airport",
    "city": "Vijayawada",
    "country": "India",
    "lat": 16.5304,
    "lon": 80.7968,
    "timezone": "Asia/Kolkata",
    "currency": "INR"
  },
  {
    "iata": "TIR",
    "icao": "VOTPA",
    "name": "Tirupati Airport",
    "city": "Tirupati",
    "country": "India",
    "lat": 13.6325,
    "lon": 79.5433,
    "timezone": "Asia/Kolkata",
    "currency": "INR"
  },
  {
    "iata": "CDP",
    "icao": "VOCP",
    "name": "Cuddapah Airport",
    "city": "Kadapa",
    "country": "India",
    "lat": 14.51,
    "lon": 78.7728,
    "timezone": "Asia/Kolkata",
    "currency": "INR"
  },
  {
    "iata": "RMD",
    "icao": "VORM",
    "name": "Ramnad Airport",
    "city": "Ramanathapuram",
    "country": "India",
    "lat": 9.2249,
    "lon": 78.9298,
    "timezone": "Asia/Kolkata",
    "currency": "INR"
  },
  {
    "iata": "PNY",
    "icao": "VOPC",
    "name": "Pondicherry Airport",
    "city": "Puducherry",
    "country": "India",
    "lat": 11.9676,
    "lon": 79.812,
    "timezone": "Asia/Kolkata",
    "currency": "INR"
  },
  {
    "iata": "SXV",
    "icao": "VOSM",
    "name": "Salem Airport",
    "city": "Salem",
    "country": "India",
    "lat": 11.7833,
    "lon": 78.0656,
    "timezone": "Asia/Kolkata",
    "currency": "INR"
  },
  {
    "iata": "NVY",
    "icao": "VONV",
    "name": "Neyveli Airport",
    "city": "Neyveli",
    "country": "India",
    "lat": 11.6098,
    "lon": 79.3948,
    "timezone": "Asia/Kolkata",
    "currency": "INR"
  },
  {
    "iata": "DPL",
    "icao": "VEDB",
    "name": "Deoghar Airport",
    "city": "Deoghar",
    "country": "India",
    "lat": 24.4422,
    "lon": 86.7085,
    "timezone": "Asia/Kolkata",
    "currency": "INR"
  },
  {
    "iata": "HSS",
    "icao": "VIHS",
    "name": "Hissar Airport",
    "city": "Hisar",
    "country": "India",
    "lat": 29.1793,
    "lon": 75.7553,
    "timezone": "Asia/Kolkata",
    "currency": "INR"
  },
  {
    "iata": "NDC",
    "icao": "VAND",
    "name": "Nanded Airport",
    "city": "Nanded",
    "country": "India",
    "lat": 19.1833,
    "lon": 77.3167,
    "timezone": "Asia/Kolkata",
    "currency": "INR"
  },
  {
    "iata": "SSE",
    "icao": "VASO",
    "name": "Solapur Airport",
    "city": "Solapur",
    "country": "India",
    "lat": 17.628,
    "lon": 75.9348,
    "timezone": "Asia/Kolkata",
    "currency": "INR"
  },
  {
    "iata": "KLH",
    "icao": "VAKP",
    "name": "Kolhapur Airport",
    "city": "Kolhapur",
    "country": "India",
    "lat": 16.6647,
    "lon": 74.2893,
    "timezone": "Asia/Kolkata",
    "currency": "INR"
  },
  {
    "iata": "ISK",
    "icao": "VANI",
    "name": "Gandhinagar Airport (Nasik)",
    "city": "Nasik",
    "country": "India",
    "lat": 19.9663,
    "lon": 73.9108,
    "timezone": "Asia/Kolkata",
    "currency": "INR"
  },
  {
    "iata": "OMN",
    "icao": "VAOM",
    "name": "Osmanabad Airport",
    "city": "Osmanabad",
    "country": "India",
    "lat": 18.1808,
    "lon": 76.0608,
    "timezone": "Asia/Kolkata",
    "currency": "INR"
  },
  {
    "iata": "AKD",
    "icao": "VAAKOLA",
    "name": "Akola Airport",
    "city": "Akola",
    "country": "India",
    "lat": 20.699,
    "lon": 77.0586,
    "timezone": "Asia/Kolkata",
    "currency": "INR"
  },
  {
    "iata": "AUR",
    "icao": "VAAU",
    "name": "Aurangabad Airport",
    "city": "Aurangabad",
    "country": "India",
    "lat": 19.8627,
    "lon": 75.3981,
    "timezone": "Asia/Kolkata",
    "currency": "INR"
  },
  {
    "iata": "JLG",
    "icao": "VAJL",
    "name": "Jalgaon Airport",
    "city": "Jalgaon",
    "country": "India",
    "lat": 21.0658,
    "lon": 75.0601,
    "timezone": "Asia/Kolkata",
    "currency": "INR"
  },
  {
    "iata": "DED",
    "icao": "VIDD",
    "name": "Jolly Grant Airport",
    "city": "Dehradun",
    "country": "India",
    "lat": 30.1897,
    "lon": 78.1803,
    "timezone": "Asia/Kolkata",
    "currency": "INR"
  },
  {
    "iata": "PGH",
    "icao": "VIPT",
    "name": "Pantnagar Airport",
    "city": "Pantnagar",
    "country": "India",
    "lat": 29.0334,
    "lon": 79.4737,
    "timezone": "Asia/Kolkata",
    "currency": "INR"
  },
  {
    "iata": "IXL",
    "icao": "VILH",
    "name": "Kushok Bakula Rimpochee Airport",
    "city": "Leh",
    "country": "India",
    "lat": 34.1359,
    "lon": 77.5465,
    "timezone": "Asia/Kolkata",
    "currency": "INR"
  },
  {
    "iata": "BUP",
    "icao": "VIBT",
    "name": "Bhatinda Airport",
    "city": "Bhatinda",
    "country": "India",
    "lat": 30.2701,
    "lon": 74.7557,
    "timezone": "Asia/Kolkata",
    "currency": "INR"
  },
  {
    "iata": "SPR",
    "icao": "VISP",
    "name": "Saharanpur Airport",
    "city": "Saharanpur",
    "country": "India",
    "lat": 29.9958,
    "lon": 77.7076,
    "timezone": "Asia/Kolkata",
    "currency": "INR"
  },
  {
    "iata": "LHR",
    "icao": "EGLL",
    "name": "Heathrow",
    "city": "London",
    "country": "United Kingdom",
    "lat": 51.47,
    "lon": -0.4543,
    "timezone": "Europe/London",
    "currency": "GBP"
  },
  {
    "iata": "CDG",
    "icao": "LFPG",
    "name": "Charles de Gaulle",
    "city": "Paris",
    "country": "France",
    "lat": 49.0097,
    "lon": 2.5478,
    "timezone": "Europe/Paris",
    "currency": "EUR"
  },
  {
    "iata": "FRA",
    "icao": "EDDF",
    "name": "Frankfurt Airport",
    "city": "Frankfurt",
    "country": "Germany",
    "lat": 50.0333,
    "lon": 8.5706,
    "timezone": "Europe/Berlin",
    "currency": "EUR"
  },
  {
    "iata": "AMS",
    "icao": "EHAM",
    "name": "Amsterdam Schiphol",
    "city": "Amsterdam",
    "country": "Netherlands",
    "lat": 52.3086,
    "lon": 4.7639,
    "timezone": "Europe/Amsterdam",
    "currency": "EUR"
  },
  {
    "iata": "MAD",
    "icao": "LEMD",
    "name": "Adolfo Suárez Madrid-Barajas",
    "city": "Madrid",
    "country": "Spain",
    "lat": 40.4719,
    "lon": -3.5626,
    "timezone": "Europe/Madrid",
    "currency": "EUR"
  },
  {
    "iata": "BCN",
    "icao": "LEBL",
    "name": "Josep Tarradellas Barcelona-El Prat",
    "city": "Barcelona",
    "country": "Spain",
    "lat": 41.2971,
    "lon": 2.0785,
    "timezone": "Europe/Madrid",
    "currency": "EUR"
  },
  {
    "iata": "FCO",
    "icao": "LIRF",
    "name": "Leonardo da Vinci International",
    "city": "Rome",
    "country": "Italy",
    "lat": 41.8003,
    "lon": 12.2389,
    "timezone": "Europe/Rome",
    "currency": "EUR"
  },
  {
    "iata": "MUC",
    "icao": "EDDM",
    "name": "Munich Airport",
    "city": "Munich",
    "country": "Germany",
    "lat": 48.3537,
    "lon": 11.775,
    "timezone": "Europe/Berlin",
    "currency": "EUR"
  },
  {
    "iata": "ZRH",
    "icao": "LSZH",
    "name": "Zurich Airport",
    "city": "Zurich",
    "country": "Switzerland",
    "lat": 47.4647,
    "lon": 8.5492,
    "timezone": "Europe/Zurich",
    "currency": "CHF"
  },
  {
    "iata": "VIE",
    "icao": "LOWW",
    "name": "Vienna International",
    "city": "Vienna",
    "country": "Austria",
    "lat": 48.1103,
    "lon": 16.5697,
    "timezone": "Europe/Vienna",
    "currency": "EUR"
  },
  {
    "iata": "BRU",
    "icao": "EBBR",
    "name": "Brussels Airport",
    "city": "Brussels",
    "country": "Belgium",
    "lat": 50.9014,
    "lon": 4.4844,
    "timezone": "Europe/Brussels",
    "currency": "EUR"
  },
  {
    "iata": "CPH",
    "icao": "EKCH",
    "name": "Copenhagen Airport",
    "city": "Copenhagen",
    "country": "Denmark",
    "lat": 55.6181,
    "lon": 12.6561,
    "timezone": "Europe/Copenhagen",
    "currency": "DKK"
  },
  {
    "iata": "OSL",
    "icao": "ENGM",
    "name": "Oslo Gardermoen",
    "city": "Oslo",
    "country": "Norway",
    "lat": 60.1976,
    "lon": 11.1004,
    "timezone": "Europe/Oslo",
    "currency": "NOK"
  },
  {
    "iata": "ARN",
    "icao": "ESSA",
    "name": "Stockholm Arlanda",
    "city": "Stockholm",
    "country": "Sweden",
    "lat": 59.6519,
    "lon": 17.9186,
    "timezone": "Europe/Stockholm",
    "currency": "SEK"
  },
  {
    "iata": "HEL",
    "icao": "EFHK",
    "name": "Helsinki-Vantaa",
    "city": "Helsinki",
    "country": "Finland",
    "lat": 60.3172,
    "lon": 24.9633,
    "timezone": "Europe/Helsinki",
    "currency": "EUR"
  },
  {
    "iata": "LIS",
    "icao": "LPPT",
    "name": "Humberto Delgado Airport",
    "city": "Lisbon",
    "country": "Portugal",
    "lat": 38.7756,
    "lon": -9.1354,
    "timezone": "Europe/Lisbon",
    "currency": "EUR"
  },
  {
    "iata": "DUB",
    "icao": "EIDW",
    "name": "Dublin Airport",
    "city": "Dublin",
    "country": "Ireland",
    "lat": 53.4213,
    "lon": -6.2701,
    "timezone": "Europe/Dublin",
    "currency": "EUR"
  },
  {
    "iata": "ATH",
    "icao": "LGAV",
    "name": "Athens International",
    "city": "Athens",
    "country": "Greece",
    "lat": 37.9364,
    "lon": 23.9445,
    "timezone": "Europe/Athens",
    "currency": "EUR"
  },
  {
    "iata": "WAW",
    "icao": "EPWA",
    "name": "Warsaw Chopin",
    "city": "Warsaw",
    "country": "Poland",
    "lat": 52.1657,
    "lon": 20.9671,
    "timezone": "Europe/Warsaw",
    "currency": "PLN"
  },
  {
    "iata": "PRG",
    "icao": "LKPR",
    "name": "Václav Havel Airport Prague",
    "city": "Prague",
    "country": "Czech Republic",
    "lat": 50.1008,
    "lon": 14.26,
    "timezone": "Europe/Prague",
    "currency": "CZK"
  },
  {
    "iata": "BUD",
    "icao": "LHBP",
    "name": "Budapest Ferenc Liszt International",
    "city": "Budapest",
    "country": "Hungary",
    "lat": 47.4369,
    "lon": 19.2556,
    "timezone": "Europe/Budapest",
    "currency": "HUF"
  },
  {
    "iata": "IST",
    "icao": "LTFM",
    "name": "Istanbul Airport",
    "city": "Istanbul",
    "country": "Turkey",
    "lat": 41.2608,
    "lon": 28.7418,
    "timezone": "Europe/Istanbul",
    "currency": "TRY"
  },
  {
    "iata": "DXB",
    "icao": "OMDB",
    "name": "Dubai International",
    "city": "Dubai",
    "country": "UAE",
    "lat": 25.2532,
    "lon": 55.3657,
    "timezone": "Asia/Dubai",
    "currency": "AED"
  },
  {
    "iata": "AUH",
    "icao": "OMAA",
    "name": "Abu Dhabi International",
    "city": "Abu Dhabi",
    "country": "UAE",
    "lat": 24.433,
    "lon": 54.6511,
    "timezone": "Asia/Dubai",
    "currency": "AED"
  },
  {
    "iata": "DOH",
    "icao": "OTHH",
    "name": "Hamad International",
    "city": "Doha",
    "country": "Qatar",
    "lat": 25.2731,
    "lon": 51.608,
    "timezone": "Asia/Qatar",
    "currency": "QAR"
  },
  {
    "iata": "KWI",
    "icao": "OKBK",
    "name": "Kuwait International",
    "city": "Kuwait City",
    "country": "Kuwait",
    "lat": 29.2266,
    "lon": 47.9689,
    "timezone": "Asia/Kuwait",
    "currency": "KWD"
  },
  {
    "iata": "BAH",
    "icao": "OBBI",
    "name": "Bahrain International",
    "city": "Manama",
    "country": "Bahrain",
    "lat": 26.2708,
    "lon": 50.6336,
    "timezone": "Asia/Bahrain",
    "currency": "BHD"
  },
  {
    "iata": "MCT",
    "icao": "OOMS",
    "name": "Muscat International",
    "city": "Muscat",
    "country": "Oman",
    "lat": 23.5933,
    "lon": 58.2844,
    "timezone": "Asia/Muscat",
    "currency": "OMR"
  },
  {
    "iata": "RUH",
    "icao": "OERK",
    "name": "King Khalid International",
    "city": "Riyadh",
    "country": "Saudi Arabia",
    "lat": 24.9578,
    "lon": 46.6989,
    "timezone": "Asia/Riyadh",
    "currency": "SAR"
  },
  {
    "iata": "JED",
    "icao": "OEJN",
    "name": "King Abdulaziz International",
    "city": "Jeddah",
    "country": "Saudi Arabia",
    "lat": 21.6796,
    "lon": 39.1565,
    "timezone": "Asia/Riyadh",
    "currency": "SAR"
  },
  {
    "iata": "TLV",
    "icao": "LLBG",
    "name": "Ben Gurion International",
    "city": "Tel Aviv",
    "country": "Israel",
    "lat": 32.0055,
    "lon": 34.8854,
    "timezone": "Asia/Jerusalem",
    "currency": "ILS"
  },
  {
    "iata": "AMM",
    "icao": "OJAI",
    "name": "Queen Alia International",
    "city": "Amman",
    "country": "Jordan",
    "lat": 31.7226,
    "lon": 35.9932,
    "timezone": "Asia/Amman",
    "currency": "JOD"
  },
  {
    "iata": "BEY",
    "icao": "OLBA",
    "name": "Beirut–Rafic Hariri International",
    "city": "Beirut",
    "country": "Lebanon",
    "lat": 33.8209,
    "lon": 35.4884,
    "timezone": "Asia/Beirut",
    "currency": "LBP"
  },
  {
    "iata": "CAI",
    "icao": "HECA",
    "name": "Cairo International",
    "city": "Cairo",
    "country": "Egypt",
    "lat": 30.1219,
    "lon": 31.4056,
    "timezone": "Africa/Cairo",
    "currency": "EGP"
  },
  {
    "iata": "ADD",
    "icao": "HAAB",
    "name": "Addis Ababa Bole International",
    "city": "Addis Ababa",
    "country": "Ethiopia",
    "lat": 8.9779,
    "lon": 38.7993,
    "timezone": "Africa/Addis_Ababa",
    "currency": "ETB"
  },
  {
    "iata": "NBO",
    "icao": "HKJK",
    "name": "Jomo Kenyatta International",
    "city": "Nairobi",
    "country": "Kenya",
    "lat": -1.3192,
    "lon": 36.9275,
    "timezone": "Africa/Nairobi",
    "currency": "KES"
  },
  {
    "iata": "JNB",
    "icao": "FAJS",
    "name": "O.R. Tambo International",
    "city": "Johannesburg",
    "country": "South Africa",
    "lat": -26.1392,
    "lon": 28.246,
    "timezone": "Africa/Johannesburg",
    "currency": "ZAR"
  },
  {
    "iata": "CPT",
    "icao": "FACT",
    "name": "Cape Town International",
    "city": "Cape Town",
    "country": "South Africa",
    "lat": -33.9649,
    "lon": 18.6017,
    "timezone": "Africa/Johannesburg",
    "currency": "ZAR"
  },
  {
    "iata": "LOS",
    "icao": "DNMM",
    "name": "Murtala Muhammed International",
    "city": "Lagos",
    "country": "Nigeria",
    "lat": 6.5774,
    "lon": 3.3212,
    "timezone": "Africa/Lagos",
    "currency": "NGN"
  },
  {
    "iata": "CMN",
    "icao": "GMMN",
    "name": "Mohammed V International",
    "city": "Casablanca",
    "country": "Morocco",
    "lat": 33.3675,
    "lon": -7.5898,
    "timezone": "Africa/Casablanca",
    "currency": "MAD"
  },
  {
    "iata": "TUN",
    "icao": "DTTA",
    "name": "Tunis-Carthage International",
    "city": "Tunis",
    "country": "Tunisia",
    "lat": 36.851,
    "lon": 10.2272,
    "timezone": "Africa/Tunis",
    "currency": "TND"
  },
  {
    "iata": "PEK",
    "icao": "ZBAA",
    "name": "Beijing Capital International",
    "city": "Beijing",
    "country": "China",
    "lat": 40.0799,
    "lon": 116.6031,
    "timezone": "Asia/Shanghai",
    "currency": "CNY"
  },
  {
    "iata": "PKX",
    "icao": "ZBAD",
    "name": "Beijing Daxing International",
    "city": "Beijing",
    "country": "China",
    "lat": 39.5098,
    "lon": 116.4105,
    "timezone": "Asia/Shanghai",
    "currency": "CNY"
  },
  {
    "iata": "PVG",
    "icao": "ZSPD",
    "name": "Shanghai Pudong International",
    "city": "Shanghai",
    "country": "China",
    "lat": 31.1443,
    "lon": 121.8083,
    "timezone": "Asia/Shanghai",
    "currency": "CNY"
  },
  {
    "iata": "SHA",
    "icao": "ZSSS",
    "name": "Shanghai Hongqiao International",
    "city": "Shanghai",
    "country": "China",
    "lat": 31.1979,
    "lon": 121.3363,
    "timezone": "Asia/Shanghai",
    "currency": "CNY"
  },
  {
    "iata": "CAN",
    "icao": "ZGGG",
    "name": "Guangzhou Baiyun International",
    "city": "Guangzhou",
    "country": "China",
    "lat": 23.3924,
    "lon": 113.299,
    "timezone": "Asia/Shanghai",
    "currency": "CNY"
  },
  {
    "iata": "CTU",
    "icao": "ZUUU",
    "name": "Chengdu Shuangliu International",
    "city": "Chengdu",
    "country": "China",
    "lat": 30.5785,
    "lon": 103.9471,
    "timezone": "Asia/Shanghai",
    "currency": "CNY"
  },
  {
    "iata": "HKG",
    "icao": "VHHH",
    "name": "Hong Kong International",
    "city": "Hong Kong",
    "country": "Hong Kong",
    "lat": 22.308,
    "lon": 113.9185,
    "timezone": "Asia/Hong_Kong",
    "currency": "HKD"
  },
  {
    "iata": "TPE",
    "icao": "RCTP",
    "name": "Taiwan Taoyuan International",
    "city": "Taipei",
    "country": "Taiwan",
    "lat": 25.0777,
    "lon": 121.2322,
    "timezone": "Asia/Taipei",
    "currency": "TWD"
  },
  {
    "iata": "ICN",
    "icao": "RKSI",
    "name": "Incheon International",
    "city": "Seoul",
    "country": "South Korea",
    "lat": 37.4691,
    "lon": 126.451,
    "timezone": "Asia/Seoul",
    "currency": "KRW"
  },
  {
    "iata": "GMP",
    "icao": "RKSS",
    "name": "Gimpo International",
    "city": "Seoul",
    "country": "South Korea",
    "lat": 37.5583,
    "lon": 126.7906,
    "timezone": "Asia/Seoul",
    "currency": "KRW"
  },
  {
    "iata": "NRT",
    "icao": "RJAA",
    "name": "Narita International",
    "city": "Tokyo",
    "country": "Japan",
    "lat": 35.7648,
    "lon": 140.3864,
    "timezone": "Asia/Tokyo",
    "currency": "JPY"
  },
  {
    "iata": "HND",
    "icao": "RJTT",
    "name": "Tokyo Haneda",
    "city": "Tokyo",
    "country": "Japan",
    "lat": 35.5494,
    "lon": 139.7798,
    "timezone": "Asia/Tokyo",
    "currency": "JPY"
  },
  {
    "iata": "KIX",
    "icao": "RJBB",
    "name": "Kansai International",
    "city": "Osaka",
    "country": "Japan",
    "lat": 34.4347,
    "lon": 135.244,
    "timezone": "Asia/Tokyo",
    "currency": "JPY"
  },
  {
    "iata": "SIN",
    "icao": "WSSS",
    "name": "Singapore Changi",
    "city": "Singapore",
    "country": "Singapore",
    "lat": 1.3644,
    "lon": 103.9915,
    "timezone": "Asia/Singapore",
    "currency": "SGD"
  },
  {
    "iata": "KUL",
    "icao": "WMKK",
    "name": "Kuala Lumpur International",
    "city": "Kuala Lumpur",
    "country": "Malaysia",
    "lat": 2.7456,
    "lon": 101.7099,
    "timezone": "Asia/Kuala_Lumpur",
    "currency": "MYR"
  },
  {
    "iata": "BKK",
    "icao": "VTBS",
    "name": "Suvarnabhumi International",
    "city": "Bangkok",
    "country": "Thailand",
    "lat": 13.69,
    "lon": 100.7501,
    "timezone": "Asia/Bangkok",
    "currency": "THB"
  },
  {
    "iata": "DMK",
    "icao": "VTBD",
    "name": "Don Mueang International",
    "city": "Bangkok",
    "country": "Thailand",
    "lat": 13.9126,
    "lon": 100.607,
    "timezone": "Asia/Bangkok",
    "currency": "THB"
  },
  {
    "iata": "CGK",
    "icao": "WIII",
    "name": "Soekarno-Hatta International",
    "city": "Jakarta",
    "country": "Indonesia",
    "lat": -6.1256,
    "lon": 106.6559,
    "timezone": "Asia/Jakarta",
    "currency": "IDR"
  },
  {
    "iata": "MNL",
    "icao": "RPLL",
    "name": "Ninoy Aquino International",
    "city": "Manila",
    "country": "Philippines",
    "lat": 14.5086,
    "lon": 121.0197,
    "timezone": "Asia/Manila",
    "currency": "PHP"
  },
  {
    "iata": "SGN",
    "icao": "VVTS",
    "name": "Tan Son Nhat International",
    "city": "Ho Chi Minh City",
    "country": "Vietnam",
    "lat": 10.8188,
    "lon": 106.652,
    "timezone": "Asia/Ho_Chi_Minh",
    "currency": "VND"
  },
  {
    "iata": "HAN",
    "icao": "VVNB",
    "name": "Noi Bai International",
    "city": "Hanoi",
    "country": "Vietnam",
    "lat": 21.2212,
    "lon": 105.8072,
    "timezone": "Asia/Ho_Chi_Minh",
    "currency": "VND"
  },
  {
    "iata": "RGN",
    "icao": "VYYY",
    "name": "Yangon International",
    "city": "Yangon",
    "country": "Myanmar",
    "lat": 16.9073,
    "lon": 96.1332,
    "timezone": "Asia/Yangon",
    "currency": "MMK"
  },
  {
    "iata": "DAC",
    "icao": "VGHS",
    "name": "Hazrat Shahjalal International",
    "city": "Dhaka",
    "country": "Bangladesh",
    "lat": 23.8433,
    "lon": 90.3978,
    "timezone": "Asia/Dhaka",
    "currency": "BDT"
  },
  {
    "iata": "KTM",
    "icao": "VNKT",
    "name": "Tribhuvan International",
    "city": "Kathmandu",
    "country": "Nepal",
    "lat": 27.6966,
    "lon": 85.3591,
    "timezone": "Asia/Kathmandu",
    "currency": "NPR"
  },
  {
    "iata": "CMB",
    "icao": "VCBI",
    "name": "Bandaranaike International",
    "city": "Colombo",
    "country": "Sri Lanka",
    "lat": 7.1808,
    "lon": 79.8841,
    "timezone": "Asia/Colombo",
    "currency": "LKR"
  },
  {
    "iata": "MLE",
    "icao": "VRMM",
    "name": "Velana International",
    "city": "Malé",
    "country": "Maldives",
    "lat": 4.1918,
    "lon": 73.529,
    "timezone": "Indian/Maldives",
    "currency": "MVR"
  },
  {
    "iata": "SYD",
    "icao": "YSSY",
    "name": "Sydney Kingsford Smith",
    "city": "Sydney",
    "country": "Australia",
    "lat": -33.9399,
    "lon": 151.1753,
    "timezone": "Australia/Sydney",
    "currency": "AUD"
  },
  {
    "iata": "MEL",
    "icao": "YMML",
    "name": "Melbourne Airport",
    "city": "Melbourne",
    "country": "Australia",
    "lat": -37.669,
    "lon": 144.841,
    "timezone": "Australia/Melbourne",
    "currency": "AUD"
  },
  {
    "iata": "BNE",
    "icao": "YBBN",
    "name": "Brisbane Airport",
    "city": "Brisbane",
    "country": "Australia",
    "lat": -27.3842,
    "lon": 153.1175,
    "timezone": "Australia/Brisbane",
    "currency": "AUD"
  },
  {
    "iata": "PER",
    "icao": "YPPH",
    "name": "Perth Airport",
    "city": "Perth",
    "country": "Australia",
    "lat": -31.9402,
    "lon": 115.9669,
    "timezone": "Australia/Perth",
    "currency": "AUD"
  },
  {
    "iata": "AKL",
    "icao": "NZAA",
    "name": "Auckland Airport",
    "city": "Auckland",
    "country": "New Zealand",
    "lat": -37.0082,
    "lon": 174.785,
    "timezone": "Pacific/Auckland",
    "currency": "NZD"
  },
  {
    "iata": "CHC",
    "icao": "NZCH",
    "name": "Christchurch Airport",
    "city": "Christchurch",
    "country": "New Zealand",
    "lat": -43.4894,
    "lon": 172.5322,
    "timezone": "Pacific/Auckland",
    "currency": "NZD"
  },
  {
    "iata": "JFK",
    "icao": "KJFK",
    "name": "John F. Kennedy International",
    "city": "New York",
    "country": "USA",
    "lat": 40.6413,
    "lon": -73.7781,
    "timezone": "America/New_York",
    "currency": "USD"
  },
  {
    "iata": "LGA",
    "icao": "KLGA",
    "name": "LaGuardia Airport",
    "city": "New York",
    "country": "USA",
    "lat": 40.7769,
    "lon": -73.874,
    "timezone": "America/New_York",
    "currency": "USD"
  },
  {
    "iata": "EWR",
    "icao": "KEWR",
    "name": "Newark Liberty International",
    "city": "New Jersey",
    "country": "USA",
    "lat": 40.6895,
    "lon": -74.1745,
    "timezone": "America/New_York",
    "currency": "USD"
  },
  {
    "iata": "LAX",
    "icao": "KLAX",
    "name": "Los Angeles International",
    "city": "Los Angeles",
    "country": "USA",
    "lat": 33.9425,
    "lon": -118.4081,
    "timezone": "America/Los_Angeles",
    "currency": "USD"
  },
  {
    "iata": "ORD",
    "icao": "KORD",
    "name": "O'Hare International",
    "city": "Chicago",
    "country": "USA",
    "lat": 41.9742,
    "lon": -87.9073,
    "timezone": "America/Chicago",
    "currency": "USD"
  },
  {
    "iata": "ATL",
    "icao": "KATL",
    "name": "Hartsfield-Jackson Atlanta International",
    "city": "Atlanta",
    "country": "USA",
    "lat": 33.6407,
    "lon": -84.4277,
    "timezone": "America/New_York",
    "currency": "USD"
  },
  {
    "iata": "DFW",
    "icao": "KDFW",
    "name": "Dallas/Fort Worth International",
    "city": "Dallas",
    "country": "USA",
    "lat": 32.8998,
    "lon": -97.0403,
    "timezone": "America/Chicago",
    "currency": "USD"
  },
  {
    "iata": "DEN",
    "icao": "KDEN",
    "name": "Denver International",
    "city": "Denver",
    "country": "USA",
    "lat": 39.8561,
    "lon": -104.6737,
    "timezone": "America/Denver",
    "currency": "USD"
  },
  {
    "iata": "SFO",
    "icao": "KSFO",
    "name": "San Francisco International",
    "city": "San Francisco",
    "country": "USA",
    "lat": 37.6213,
    "lon": -122.379,
    "timezone": "America/Los_Angeles",
    "currency": "USD"
  },
  {
    "iata": "SEA",
    "icao": "KSEA",
    "name": "Seattle-Tacoma International",
    "city": "Seattle",
    "country": "USA",
    "lat": 47.4502,
    "lon": -122.3088,
    "timezone": "America/Los_Angeles",
    "currency": "USD"
  },
  {
    "iata": "MIA",
    "icao": "KMIA",
    "name": "Miami International",
    "city": "Miami",
    "country": "USA",
    "lat": 25.7959,
    "lon": -80.287,
    "timezone": "America/New_York",
    "currency": "USD"
  },
  {
    "iata": "BOS",
    "icao": "KBOS",
    "name": "Logan International",
    "city": "Boston",
    "country": "USA",
    "lat": 42.3656,
    "lon": -71.0096,
    "timezone": "America/New_York",
    "currency": "USD"
  },
  {
    "iata": "LAS",
    "icao": "KLAS",
    "name": "Harry Reid International",
    "city": "Las Vegas",
    "country": "USA",
    "lat": 36.084,
    "lon": -115.1537,
    "timezone": "America/Los_Angeles",
    "currency": "USD"
  },
  {
    "iata": "PHX",
    "icao": "KPHX",
    "name": "Phoenix Sky Harbor International",
    "city": "Phoenix",
    "country": "USA",
    "lat": 33.4373,
    "lon": -112.0078,
    "timezone": "America/Denver",
    "currency": "USD"
  },
  {
    "iata": "IAD",
    "icao": "KIAD",
    "name": "Washington Dulles International",
    "city": "Washington D.C.",
    "country": "USA",
    "lat": 38.9531,
    "lon": -77.4565,
    "timezone": "America/New_York",
    "currency": "USD"
  },
  {
    "iata": "DCA",
    "icao": "KDCA",
    "name": "Ronald Reagan Washington National",
    "city": "Washington D.C.",
    "country": "USA",
    "lat": 38.8512,
    "lon": -77.0402,
    "timezone": "America/New_York",
    "currency": "USD"
  },
  {
    "iata": "HOU",
    "icao": "KHOU",
    "name": "William P. Hobby Airport",
    "city": "Houston",
    "country": "USA",
    "lat": 29.6454,
    "lon": -95.2789,
    "timezone": "America/Chicago",
    "currency": "USD"
  },
  {
    "iata": "IAH",
    "icao": "KIAH",
    "name": "George Bush Intercontinental",
    "city": "Houston",
    "country": "USA",
    "lat": 29.9902,
    "lon": -95.3368,
    "timezone": "America/Chicago",
    "currency": "USD"
  },
  {
    "iata": "MSP",
    "icao": "KMSP",
    "name": "Minneapolis-Saint Paul International",
    "city": "Minneapolis",
    "country": "USA",
    "lat": 44.8848,
    "lon": -93.2223,
    "timezone": "America/Chicago",
    "currency": "USD"
  },
  {
    "iata": "DTW",
    "icao": "KDTW",
    "name": "Detroit Metropolitan Wayne County",
    "city": "Detroit",
    "country": "USA",
    "lat": 42.2162,
    "lon": -83.3554,
    "timezone": "America/New_York",
    "currency": "USD"
  },
  {
    "iata": "PHL",
    "icao": "KPHL",
    "name": "Philadelphia International",
    "city": "Philadelphia",
    "country": "USA",
    "lat": 39.8721,
    "lon": -75.2411,
    "timezone": "America/New_York",
    "currency": "USD"
  },
  {
    "iata": "CLT",
    "icao": "KCLT",
    "name": "Charlotte Douglas International",
    "city": "Charlotte",
    "country": "USA",
    "lat": 35.214,
    "lon": -80.9431,
    "timezone": "America/New_York",
    "currency": "USD"
  },
  {
    "iata": "YYZ",
    "icao": "CYYZ",
    "name": "Toronto Pearson International",
    "city": "Toronto",
    "country": "Canada",
    "lat": 43.6777,
    "lon": -79.6248,
    "timezone": "America/Toronto",
    "currency": "CAD"
  },
  {
    "iata": "YVR",
    "icao": "CYVR",
    "name": "Vancouver International",
    "city": "Vancouver",
    "country": "Canada",
    "lat": 49.1947,
    "lon": -123.1792,
    "timezone": "America/Toronto",
    "currency": "CAD"
  },
  {
    "iata": "YUL",
    "icao": "CYUL",
    "name": "Montréal-Trudeau International",
    "city": "Montreal",
    "country": "Canada",
    "lat": 45.4706,
    "lon": -73.7408,
    "timezone": "America/Toronto",
    "currency": "CAD"
  },
  {
    "iata": "YYC",
    "icao": "CYYC",
    "name": "Calgary International",
    "city": "Calgary",
    "country": "Canada",
    "lat": 51.1215,
    "lon": -114.0133,
    "timezone": "America/Toronto",
    "currency": "CAD"
  },
  {
    "iata": "MEX",
    "icao": "MMMX",
    "name": "Licenciado Benito Juárez International",
    "city": "Mexico City",
    "country": "Mexico",
    "lat": 19.4363,
    "lon": -99.0721,
    "timezone": "America/Mexico_City",
    "currency": "MXN"
  },
  {
    "iata": "GDL",
    "icao": "MMGL",
    "name": "Don Miguel Hidalgo y Costilla International",
    "city": "Guadalajara",
    "country": "Mexico",
    "lat": 20.5218,
    "lon": -103.3107,
    "timezone": "America/Mexico_City",
    "currency": "MXN"
  },
  {
    "iata": "GRU",
    "icao": "SBGR",
    "name": "São Paulo/Guarulhos International",
    "city": "São Paulo",
    "country": "Brazil",
    "lat": -23.4356,
    "lon": -46.4731,
    "timezone": "America/Sao_Paulo",
    "currency": "BRL"
  },
  {
    "iata": "GIG",
    "icao": "SBGL",
    "name": "Rio de Janeiro/Galeão International",
    "city": "Rio de Janeiro",
    "country": "Brazil",
    "lat": -22.8099,
    "lon": -43.2505,
    "timezone": "America/Sao_Paulo",
    "currency": "BRL"
  },
  {
    "iata": "BOG",
    "icao": "SKBO",
    "name": "El Dorado International",
    "city": "Bogotá",
    "country": "Colombia",
    "lat": 4.7016,
    "lon": -74.1469,
    "timezone": "America/Bogota",
    "currency": "COP"
  },
  {
    "iata": "LIM",
    "icao": "SPJC",
    "name": "Jorge Chávez International",
    "city": "Lima",
    "country": "Peru",
    "lat": -12.0219,
    "lon": -77.1143,
    "timezone": "America/Lima",
    "currency": "PEN"
  },
  {
    "iata": "SCL",
    "icao": "SCEL",
    "name": "Arturo Merino Benítez International",
    "city": "Santiago",
    "country": "Chile",
    "lat": -33.3928,
    "lon": -70.7857,
    "timezone": "America/Santiago",
    "currency": "CLP"
  },
  {
    "iata": "EZE",
    "icao": "SAEZ",
    "name": "Ministro Pistarini International",
    "city": "Buenos Aires",
    "country": "Argentina",
    "lat": -34.8222,
    "lon": -58.5358,
    "timezone": "America/Argentina/Buenos_Aires",
    "currency": "ARS"
  },
  {
    "iata": "AKA",
    "icao": "SAEZ",
    "name": "Buenos Aires Aeroparque",
    "city": "Buenos Aires",
    "country": "Argentina",
    "lat": -34.5592,
    "lon": -58.4156,
    "timezone": "America/Argentina/Buenos_Aires",
    "currency": "ARS"
  },
  {
    "iata": "SVO",
    "icao": "UUEE",
    "name": "Sheremetyevo International",
    "city": "Moscow",
    "country": "Russia",
    "lat": 55.9736,
    "lon": 37.4125,
    "timezone": "Europe/Moscow",
    "currency": "RUB"
  },
  {
    "iata": "DME",
    "icao": "UUDD",
    "name": "Domodedovo International",
    "city": "Moscow",
    "country": "Russia",
    "lat": 55.4088,
    "lon": 37.9063,
    "timezone": "Europe/Moscow",
    "currency": "RUB"
  },
  {
    "iata": "LED",
    "icao": "ULLI",
    "name": "Pulkovo Airport",
    "city": "St. Petersburg",
    "country": "Russia",
    "lat": 59.8003,
    "lon": 30.2625,
    "timezone": "Europe/Moscow",
    "currency": "RUB"
  },
  {
    "iata": "PKC",
    "icao": "UHPP",
    "name": "Yelizovo Airport",
    "city": "Petropavlovsk-Kamchatsky",
    "country": "Russia",
    "lat": 53.1679,
    "lon": 158.4536,
    "timezone": "Europe/Moscow",
    "currency": "RUB"
  },
  {
    "iata": "IKT",
    "icao": "UIII",
    "name": "Irkutsk International",
    "city": "Irkutsk",
    "country": "Russia",
    "lat": 52.268,
    "lon": 104.389,
    "timezone": "Europe/Moscow",
    "currency": "RUB"
  }
]